time,.header.seq,.header.stamp.secs,.header.stamp.nsecs,.header.frame_id,.status.status,.status.service,.latitude,.longitude,.altitude,.position_covariance,.position_covariance_type
2023/03/01/16:57:41.227321,1,1677550503,971476690,imu_link,0,0,35.8786049,127.1744866,93.927,"(0.34105599999999997, 0.0, 0.0, 0.0, 0.34105599999999997, 0.0, 0.0, 0.0, 0.7974490000000001)",2
2023/03/01/16:57:42.714097,2,1677550504,471245779,imu_link,0,0,35.878706199999996,127.17447569999999,93.616,"(0.33756099999999994, 0.0, 0.0, 0.0, 0.33756099999999994, 0.0, 0.0, 0.0, 0.788544)",2
2023/03/01/16:57:42.772828,3,1677550504,721503484,imu_link,0,0,35.8787569,127.1744707,93.465,"(0.3364, 0.0, 0.0, 0.0, 0.3364, 0.0, 0.0, 0.0, 0.784996)",2
2023/03/01/16:57:43.945458,4,1677550506,971845579,imu_link,0,0,35.8792109,127.17443759999999,92.20400000000001,"(0.3260410000000001, 0.0, 0.0, 0.0, 0.3260410000000001, 0.0, 0.0, 0.0, 0.7516889999999999)",2
2023/03/01/16:57:45.775771,5,1677550508,722095207,imu_link,0,0,35.8795607,127.17443019999999,91.116,"(0.3226240000000001, 0.0, 0.0, 0.0, 0.3226240000000001, 0.0, 0.0, 0.0, 0.7361639999999999)",2
2023/03/01/16:57:47.596652,6,1677550510,471961396,imu_link,0,0,35.8799087,127.1744384,89.881,"(0.3260410000000001, 0.0, 0.0, 0.0, 0.3260410000000001, 0.0, 0.0, 0.0, 0.725904)",2
2023/03/01/16:57:47.754176,7,1677550510,722487868,imu_link,0,0,35.879957999999995,127.1744408,89.783,"(0.3260410000000001, 0.0, 0.0, 0.0, 0.3260410000000001, 0.0, 0.0, 0.0, 0.725904)",2
2023/03/01/16:57:47.899764,8,1677550510,972500540,imu_link,0,0,35.8800075,127.17444309999999,89.641,"(0.3283290000000001, 0.0, 0.0, 0.0, 0.3283290000000001, 0.0, 0.0, 0.0, 0.725904)",2
2023/03/01/16:57:48.506381,9,1677550511,469369206,imu_link,0,0,35.8801061,127.1744485,89.342,"(0.33177600000000007, 0.0, 0.0, 0.0, 0.33177600000000007, 0.0, 0.0, 0.0, 0.7327359999999999)",2
2023/03/01/16:57:48.709197,10,1677550511,721872317,imu_link,0,0,35.8801549,127.17445149999999,89.182,"(0.332929, 0.0, 0.0, 0.0, 0.332929, 0.0, 0.0, 0.0, 0.737881)",2
2023/03/01/16:57:49.574539,11,1677550512,472267901,imu_link,0,0,35.8802989,127.17446029999999,88.675,"(0.33872399999999997, 0.0, 0.0, 0.0, 0.33872399999999997, 0.0, 0.0, 0.0, 0.753424)",2
2023/03/01/16:57:49.687795,12,1677550512,719413812,imu_link,0,0,35.8803458,127.1744633,88.524,"(0.34105599999999997, 0.0, 0.0, 0.0, 0.34105599999999997, 0.0, 0.0, 0.0, 0.760384)",2
2023/03/01/16:57:51.696636,13,1677550514,718281892,imu_link,0,0,35.8807061,127.17446819999999,87.431,"(0.354025, 0.0, 0.0, 0.0, 0.354025, 0.0, 0.0, 0.0, 0.7974490000000001)",2
2023/03/01/16:57:51.970861,14,1677550514,971709417,imu_link,0,0,35.8807495,127.1744652,87.295,"(0.354025, 0.0, 0.0, 0.0, 0.354025, 0.0, 0.0, 0.0, 0.801025)",2
2023/03/01/16:57:52.585955,15,1677550515,467156316,imu_link,0,0,35.8808359,127.17445649999999,86.956,"(0.354025, 0.0, 0.0, 0.0, 0.354025, 0.0, 0.0, 0.0, 0.8082010000000001)",2
2023/03/01/16:57:52.691123,16,1677550515,717445708,imu_link,0,0,35.8808787,127.1744509,86.805,"(0.354025, 0.0, 0.0, 0.0, 0.354025, 0.0, 0.0, 0.0, 0.813604)",2
2023/03/01/16:57:52.887175,17,1677550515,969004509,imu_link,0,0,35.8809215,127.17444449999999,86.667,"(0.354025, 0.0, 0.0, 0.0, 0.354025, 0.0, 0.0, 0.0, 0.813604)",2
2023/03/01/16:57:53.321400,18,1677550516,216627779,imu_link,0,0,35.880964399999996,127.17443739999999,86.556,"(0.355216, 0.0, 0.0, 0.0, 0.355216, 0.0, 0.0, 0.0, 0.817216)",2
2023/03/01/16:57:53.691985,19,1677550516,711716609,imu_link,0,0,35.881050699999996,127.17442059999999,86.263,"(0.356409, 0.0, 0.0, 0.0, 0.356409, 0.0, 0.0, 0.0, 0.8281000000000001)",2
2023/03/01/16:57:55.178653,20,1677550517,970809783,imu_link,0,0,35.8812682,127.1743643,85.502,"(0.364816, 0.0, 0.0, 0.0, 0.364816, 0.0, 0.0, 0.0, 0.8574760000000001)",2
2023/03/01/16:57:55.663617,21,1677550518,466206743,imu_link,0,0,35.881355299999996,127.17433519999999,85.238,"(0.37088099999999996, 0.0, 0.0, 0.0, 0.37088099999999996, 0.0, 0.0, 0.0, 0.8686240000000001)",2
2023/03/01/16:57:55.809913,22,1677550518,716883429,imu_link,0,0,35.8813989,127.17431909999999,85.112,"(0.37576899999999996, 0.0, 0.0, 0.0, 0.37576899999999996, 0.0, 0.0, 0.0, 0.8742250000000001)",2
2023/03/01/16:57:55.894020,23,1677550518,972218775,imu_link,0,0,35.8814424,127.174302,84.997,"(0.380689, 0.0, 0.0, 0.0, 0.380689, 0.0, 0.0, 0.0, 0.8779690000000001)",2
2023/03/01/16:57:56.489648,24,1677550519,467283763,imu_link,0,0,35.8815299,127.1742646,84.643,"(0.389376, 0.0, 0.0, 0.0, 0.389376, 0.0, 0.0, 0.0, 0.8892490000000001)",2
2023/03/01/16:57:56.690572,25,1677550519,716699253,imu_link,0,0,35.8815734,127.1742445,84.47500000000001,"(0.394384, 0.0, 0.0, 0.0, 0.394384, 0.0, 0.0, 0.0, 0.8968090000000001)",2
2023/03/01/16:57:57.694685,26,1677550520,713594787,imu_link,0,0,35.8817476,127.1741539,83.875,"(0.413449, 0.0, 0.0, 0.0, 0.413449, 0.0, 0.0, 0.0, 0.992016)",2
2023/03/01/16:57:58.873032,27,1677550521,712369761,imu_link,0,0,35.881921,127.1740488,83.26,"(0.43956900000000004, 0.0, 0.0, 0.0, 0.43956900000000004, 0.0, 0.0, 0.0, 1.0878489999999998)",2
2023/03/01/16:57:59.729879,28,1677550522,713725839,imu_link,0,0,35.882096,127.17393209999999,82.66,"(0.4610410000000001, 0.0, 0.0, 0.0, 0.4610410000000001, 0.0, 0.0, 0.0, 1.1728889999999998)",2
2023/03/01/16:57:59.901851,29,1677550522,966977830,imu_link,0,0,35.8821405,127.1739018,82.514,"(0.4637610000000001, 0.0, 0.0, 0.0, 0.4637610000000001, 0.0, 0.0, 0.0, 1.1881000000000002)",2
2023/03/01/16:58:00.596825,30,1677550523,465968979,imu_link,0,0,35.8822299,127.17384039999999,82.20400000000001,"(0.4664890000000001, 0.0, 0.0, 0.0, 0.4664890000000001, 0.0, 0.0, 0.0, 1.1968360000000002)",2
2023/03/01/16:58:00.773454,31,1677550523,717489089,imu_link,0,0,35.882274699999996,127.1738091,82.02,"(0.4664890000000001, 0.0, 0.0, 0.0, 0.4664890000000001, 0.0, 0.0, 0.0, 1.203409)",2
2023/03/01/16:58:00.894251,32,1677550523,967670620,imu_link,0,0,35.8823195,127.17377719999999,81.75,"(0.4651240000000001, 0.0, 0.0, 0.0, 0.4651240000000001, 0.0, 0.0, 0.0, 1.207801)",2
2023/03/01/16:58:01.488420,33,1677550524,467504051,imu_link,0,0,35.882410199999995,127.17371279999999,81.388,"(0.4651240000000001, 0.0, 0.0, 0.0, 0.4651240000000001, 0.0, 0.0, 0.0, 1.2100000000000002)",2
2023/03/01/16:58:01.694472,34,1677550524,716215795,imu_link,0,0,35.882456,127.17368019999999,81.182,"(0.4637610000000001, 0.0, 0.0, 0.0, 0.4637610000000001, 0.0, 0.0, 0.0, 1.2122009999999999)",2
2023/03/01/16:58:02.605549,35,1677550525,471402438,imu_link,0,0,35.8825952,127.1735817,80.574,"(0.4610410000000001, 0.0, 0.0, 0.0, 0.4610410000000001, 0.0, 0.0, 0.0, 1.2012160000000003)",2
2023/03/01/16:58:02.693327,36,1677550525,719430527,imu_link,0,0,35.8826418,127.1735485,80.473,"(0.45968400000000004, 0.0, 0.0, 0.0, 0.45968400000000004, 0.0, 0.0, 0.0, 1.1946489999999998)",2
2023/03/01/16:58:03.613139,37,1677550526,471726615,imu_link,0,0,35.8827834,127.17344759999999,79.904,"(0.45697600000000005, 0.0, 0.0, 0.0, 0.45697600000000005, 0.0, 0.0, 0.0, 1.1924640000000002)",2
2023/03/01/16:58:03.840021,38,1677550526,721557399,imu_link,0,0,35.8828311,127.17341379999999,79.733,"(0.45562500000000006, 0.0, 0.0, 0.0, 0.45562500000000006, 0.0, 0.0, 0.0, 1.1946489999999998)",2
2023/03/01/16:58:04.290868,39,1677550527,221217185,imu_link,0,0,35.8829273,127.17334559999999,79.316,"(0.4529290000000001, 0.0, 0.0, 0.0, 0.4529290000000001, 0.0, 0.0, 0.0, 1.2056040000000001)",2
2023/03/01/16:58:04.584605,40,1677550527,472060714,imu_link,0,0,35.8829759,127.1733113,79.10000000000001,"(0.4529290000000001, 0.0, 0.0, 0.0, 0.4529290000000001, 0.0, 0.0, 0.0, 1.2100000000000002)",2
2023/03/01/16:58:04.687191,41,1677550527,721741121,imu_link,0,0,35.8830244,127.17327669999999,78.916,"(0.4529290000000001, 0.0, 0.0, 0.0, 0.4529290000000001, 0.0, 0.0, 0.0, 1.2122009999999999)",2
2023/03/01/16:58:05.846305,42,1677550528,721607418,imu_link,0,0,35.8832211,127.1731367,78.13,"(0.4624000000000001, 0.0, 0.0, 0.0, 0.4624000000000001, 0.0, 0.0, 0.0, 1.2499240000000003)",2
2023/03/01/16:58:06.698335,43,1677550529,716762432,imu_link,0,0,35.883420699999995,127.17299349999999,77.322,"(0.46922500000000006, 0.0, 0.0, 0.0, 0.46922500000000006, 0.0, 0.0, 0.0, 1.2859560000000003)",2
2023/03/01/16:58:07.307862,44,1677550530,221150912,imu_link,0,0,35.8835215,127.17292169999999,76.81,"(0.47059600000000007, 0.0, 0.0, 0.0, 0.47059600000000007, 0.0, 0.0, 0.0, 1.2769000000000004)",2
2023/03/01/16:58:07.491742,45,1677550530,472110931,imu_link,0,0,35.883572,127.1728859,76.539,"(0.47059600000000007, 0.0, 0.0, 0.0, 0.47059600000000007, 0.0, 0.0, 0.0, 1.274641)",2
2023/03/01/16:58:07.708357,46,1677550530,721545542,imu_link,0,0,35.8836227,127.17285,76.279,"(0.4719690000000001, 0.0, 0.0, 0.0, 0.4719690000000001, 0.0, 0.0, 0.0, 1.2769000000000004)",2
2023/03/01/16:58:08.687494,47,1677550531,721647539,imu_link,0,0,35.8838241,127.172704,75.535,"(0.4914010000000001, 0.0, 0.0, 0.0, 0.4914010000000001, 0.0, 0.0, 0.0, 1.311025)",2
2023/03/01/16:58:09.490593,48,1677550532,459470591,imu_link,0,0,35.883970999999995,127.172592,75.051,"(0.6068410000000001, 0.0, 0.0, 0.0, 0.6068410000000001, 0.0, 0.0, 0.0, 1.4616810000000002)",2
2023/03/01/16:58:09.783059,49,1677550532,713962437,imu_link,0,0,35.884020899999996,127.17255549999999,74.825,"(0.719104, 0.0, 0.0, 0.0, 0.719104, 0.0, 0.0, 0.0, 1.5376)",2
2023/03/01/16:58:10.001582,50,1677550532,962138820,imu_link,0,0,35.88407,127.1725196,74.641,"(0.8686240000000001, 0.0, 0.0, 0.0, 0.8686240000000001, 0.0, 0.0, 0.0, 1.623076)",2
2023/03/01/16:58:11.511515,51,1677550534,467261432,imu_link,0,0,35.8843521,127.17228,73.61,"(1.077444, 0.0, 0.0, 0.0, 1.077444, 0.0, 0.0, 0.0, 2.163841)",2
2023/03/01/16:58:11.690565,52,1677550534,718974112,imu_link,0,0,35.884397,127.1722372,73.304,"(1.073296, 0.0, 0.0, 0.0, 1.073296, 0.0, 0.0, 0.0, 2.1815290000000003)",2
2023/03/01/16:58:11.899403,53,1677550534,966093248,imu_link,0,0,35.884440999999995,127.1721936,73.107,"(1.0629609999999998, 0.0, 0.0, 0.0, 1.0629609999999998, 0.0, 0.0, 0.0, 2.184484)",2
2023/03/01/16:58:12.706289,54,1677550535,469088216,imu_link,0,0,35.884527,127.17210159999999,72.909,"(1.028196, 0.0, 0.0, 0.0, 1.028196, 0.0, 0.0, 0.0, 2.064969)",2
2023/03/01/16:58:15.051370,55,1677550537,969505616,imu_link,0,0,35.8849041,127.17159939999999,72.144,"(0.801025, 0.0, 0.0, 0.0, 0.801025, 0.0, 0.0, 0.0, 1.7689000000000001)",2
2023/03/01/16:58:15.488304,56,1677550538,467542485,imu_link,0,0,35.884969999999996,127.1714916,72.217,"(0.762129, 0.0, 0.0, 0.0, 0.762129, 0.0, 0.0, 0.0, 1.718721)",2
2023/03/01/16:58:15.690388,57,1677550538,716259587,imu_link,0,0,35.8850019,127.1714375,72.183,"(0.7430439999999999, 0.0, 0.0, 0.0, 0.7430439999999999, 0.0, 0.0, 0.0, 1.6952040000000002)",2
2023/03/01/16:58:15.898930,58,1677550538,968842348,imu_link,0,0,35.8850329,127.17138299999999,72.171,"(0.7310249999999999, 0.0, 0.0, 0.0, 0.7310249999999999, 0.0, 0.0, 0.0, 1.671849)",2
2023/03/01/16:58:16.493290,59,1677550539,468075074,imu_link,0,0,35.8850925,127.1712719,72.226,"(0.710649, 0.0, 0.0, 0.0, 0.710649, 0.0, 0.0, 0.0, 1.640961)",2
2023/03/01/16:58:16.695061,60,1677550539,718418287,imu_link,0,0,35.8851209,127.17121569999999,72.235,"(0.702244, 0.0, 0.0, 0.0, 0.702244, 0.0, 0.0, 0.0, 1.628176)",2
2023/03/01/16:58:16.972878,61,1677550539,966757803,imu_link,0,0,35.8851484,127.1711586,72.236,"(0.6905610000000001, 0.0, 0.0, 0.0, 0.6905610000000001, 0.0, 0.0, 0.0, 1.617984)",2
2023/03/01/16:58:17.488450,62,1677550540,468253237,imu_link,0,0,35.8852015,127.1710427,72.33,"(0.6789760000000001, 0.0, 0.0, 0.0, 0.6789760000000001, 0.0, 0.0, 0.0, 1.602756)",2
2023/03/01/16:58:17.791847,63,1677550540,716427090,imu_link,0,0,35.885226599999996,127.17098419999999,72.346,"(0.6724000000000001, 0.0, 0.0, 0.0, 0.6724000000000001, 0.0, 0.0, 0.0, 1.5901210000000003)",2
2023/03/01/16:58:18.945325,64,1677550541,974157922,imu_link,0,0,35.8853436,127.17068529999999,72.881,"(0.6464160000000001, 0.0, 0.0, 0.0, 0.6464160000000001, 0.0, 0.0, 0.0, 1.5376)",2
2023/03/01/16:58:19.486507,65,1677550542,471745648,imu_link,0,0,35.8853869,127.17056409999999,73.147,"(0.6400000000000001, 0.0, 0.0, 0.0, 0.6400000000000001, 0.0, 0.0, 0.0, 1.5301690000000003)",2
2023/03/01/16:58:19.751949,66,1677550542,716891902,imu_link,0,0,35.8854081,127.1705035,73.257,"(0.636804, 0.0, 0.0, 0.0, 0.636804, 0.0, 0.0, 0.0, 1.527696)",2
2023/03/01/16:58:20.350699,67,1677550543,241272353,imu_link,0,0,35.885449,127.17038149999999,73.44,"(0.6756840000000001, 0.0, 0.0, 0.0, 0.6756840000000001, 0.0, 0.0, 0.0, 1.5450490000000003)",2
2023/03/01/16:58:22.141601,68,1677550544,971895262,imu_link,0,0,35.8855895,127.16995379999999,74.007,"(0.5929, 0.0, 0.0, 0.0, 0.5929, 0.0, 0.0, 0.0, 1.430416)",2
2023/03/01/16:58:22.644768,69,1677550545,471567972,imu_link,0,0,35.8856312,127.1698311,74.31700000000001,"(0.571536, 0.0, 0.0, 0.0, 0.571536, 0.0, 0.0, 0.0, 1.3829759999999998)",2
2023/03/01/16:58:22.697478,70,1677550545,726060295,imu_link,0,0,35.885653,127.16977,74.379,"(0.5625, 0.0, 0.0, 0.0, 0.5625, 0.0, 0.0, 0.0, 1.3712410000000002)",2
2023/03/01/16:58:22.913663,71,1677550545,975337138,imu_link,0,0,35.8856755,127.16970909999999,74.471,"(0.559504, 0.0, 0.0, 0.0, 0.559504, 0.0, 0.0, 0.0, 1.3618890000000001)",2
2023/03/01/16:58:23.501722,72,1677550546,471690956,imu_link,0,0,35.885721499999995,127.16958699999999,74.536,"(0.552049, 0.0, 0.0, 0.0, 0.552049, 0.0, 0.0, 0.0, 1.3409639999999998)",2
2023/03/01/16:58:23.714833,73,1677550546,721295132,imu_link,0,0,35.885745,127.1695259,74.553,"(0.546121, 0.0, 0.0, 0.0, 0.546121, 0.0, 0.0, 0.0, 1.334025)",2
2023/03/01/16:58:25.519237,74,1677550548,473730824,imu_link,0,0,35.885919699999995,127.1690974,74.346,"(0.508369, 0.0, 0.0, 0.0, 0.508369, 0.0, 0.0, 0.0, 1.2454560000000003)",2
2023/03/01/16:58:25.794464,75,1677550548,724380810,imu_link,0,0,35.8859461,127.1690361,74.277,"(0.5041, 0.0, 0.0, 0.0, 0.5041, 0.0, 0.0, 0.0, 1.234321)",2
2023/03/01/16:58:27.337367,76,1677550550,221751130,imu_link,0,0,35.8861123,127.1686683,73.78,"(0.48163600000000006, 0.0, 0.0, 0.0, 0.48163600000000006, 0.0, 0.0, 0.0, 1.1815689999999999)",2
2023/03/01/16:58:27.567151,77,1677550550,471755122,imu_link,0,0,35.886141599999995,127.1686072,73.678,"(0.4761000000000001, 0.0, 0.0, 0.0, 0.4761000000000001, 0.0, 0.0, 0.0, 1.1728889999999998)",2
2023/03/01/16:58:28.029592,78,1677550550,973936094,imu_link,0,0,35.886201299999996,127.16848599999999,73.42,"(0.46785600000000005, 0.0, 0.0, 0.0, 0.46785600000000005, 0.0, 0.0, 0.0, 1.1534760000000002)",2
2023/03/01/16:58:28.520246,79,1677550551,471422965,imu_link,0,0,35.8862622,127.16836629999999,73.144,"(0.45968400000000004, 0.0, 0.0, 0.0, 0.45968400000000004, 0.0, 0.0, 0.0, 1.1342249999999998)",2
2023/03/01/16:58:28.954913,80,1677550551,971530364,imu_link,0,0,35.886324,127.1682482,72.84700000000001,"(0.45427600000000007, 0.0, 0.0, 0.0, 0.45427600000000007, 0.0, 0.0, 0.0, 1.117249)",2
2023/03/01/16:58:29.338645,81,1677550552,221471287,imu_link,0,0,35.8863552,127.1681898,72.71600000000001,"(0.45158400000000004, 0.0, 0.0, 0.0, 0.45158400000000004, 0.0, 0.0, 0.0, 1.113025)",2
2023/03/01/16:58:29.646752,82,1677550552,471725603,imu_link,0,0,35.8863864,127.16813169999999,72.599,"(0.4489000000000001, 0.0, 0.0, 0.0, 0.4489000000000001, 0.0, 0.0, 0.0, 1.108809)",2
2023/03/01/16:58:29.826160,83,1677550552,721159425,imu_link,0,0,35.8864178,127.16807379999999,72.474,"(0.44622400000000007, 0.0, 0.0, 0.0, 0.44622400000000007, 0.0, 0.0, 0.0, 1.1025)",2
2023/03/01/16:58:30.156471,84,1677550552,971381110,imu_link,0,0,35.8864494,127.168016,72.37,"(0.44222500000000003, 0.0, 0.0, 0.0, 0.44222500000000003, 0.0, 0.0, 0.0, 1.0962089999999998)",2
2023/03/01/16:58:30.976298,85,1677550553,721938259,imu_link,0,0,35.886547199999995,127.16784399999999,72.092,"(0.42902500000000005, 0.0, 0.0, 0.0, 0.42902500000000005, 0.0, 0.0, 0.0, 1.0753689999999998)",2
2023/03/01/16:58:31.691620,86,1677550554,720409905,imu_link,0,0,35.8866826,127.1676164,71.625,"(0.41602500000000003, 0.0, 0.0, 0.0, 0.41602500000000003, 0.0, 0.0, 0.0, 1.0547289999999998)",2
2023/03/01/16:58:32.502771,87,1677550555,477046356,imu_link,0,0,35.886789199999996,127.16744709999999,71.304,"(0.408321, 0.0, 0.0, 0.0, 0.408321, 0.0, 0.0, 0.0, 1.0383610000000003)",2
2023/03/01/16:58:32.688758,88,1677550555,715808320,imu_link,0,0,35.8868254,127.167391,71.194,"(0.404496, 0.0, 0.0, 0.0, 0.404496, 0.0, 0.0, 0.0, 1.0302250000000002)",2
2023/03/01/16:58:32.892003,89,1677550555,970426773,imu_link,0,0,35.8868619,127.167335,71.044,"(0.40195600000000004, 0.0, 0.0, 0.0, 0.40195600000000004, 0.0, 0.0, 0.0, 1.0221210000000003)",2
2023/03/01/16:58:33.785251,90,1677550556,720510259,imu_link,0,0,35.8869738,127.1671684,70.46300000000001,"(0.393129, 0.0, 0.0, 0.0, 0.393129, 0.0, 0.0, 0.0, 0.998001)",2
2023/03/01/16:58:34.490548,91,1677550557,471645973,imu_link,0,0,35.887088999999996,127.16700309999999,69.862,"(0.385641, 0.0, 0.0, 0.0, 0.385641, 0.0, 0.0, 0.0, 0.974169)",2
2023/03/01/16:58:34.703793,92,1677550557,721514242,imu_link,0,0,35.8871281,127.1669482,69.667,"(0.383161, 0.0, 0.0, 0.0, 0.383161, 0.0, 0.0, 0.0, 0.966289)",2
2023/03/01/16:58:35.482645,93,1677550558,221008442,imu_link,0,0,35.8872073,127.1668388,69.255,"(0.378225, 0.0, 0.0, 0.0, 0.378225, 0.0, 0.0, 0.0, 0.9506249999999999)",2
2023/03/01/16:58:35.652003,94,1677550558,470924916,imu_link,0,0,35.887247599999995,127.16678449999999,69.08,"(0.37576899999999996, 0.0, 0.0, 0.0, 0.37576899999999996, 0.0, 0.0, 0.0, 0.9428409999999999)",2
2023/03/01/16:58:35.691242,95,1677550558,721402118,imu_link,0,0,35.8872882,127.1667303,68.909,"(0.37332099999999996, 0.0, 0.0, 0.0, 0.37332099999999996, 0.0, 0.0, 0.0, 0.935089)",2
2023/03/01/16:58:36.467311,96,1677550559,225799486,imu_link,0,0,35.8873702,127.1666226,68.56700000000001,"(0.36844899999999997, 0.0, 0.0, 0.0, 0.36844899999999997, 0.0, 0.0, 0.0, 0.9216)",2
2023/03/01/16:58:36.999590,97,1677550559,971457507,imu_link,0,0,35.887493899999996,127.1664615,68.06400000000001,"(0.36360899999999996, 0.0, 0.0, 0.0, 0.36360899999999996, 0.0, 0.0, 0.0, 0.9063040000000001)",2
2023/03/01/16:58:37.542835,98,1677550560,472808875,imu_link,0,0,35.8875763,127.166354,67.71600000000001,"(0.361201, 0.0, 0.0, 0.0, 0.361201, 0.0, 0.0, 0.0, 0.8987040000000002)",2
2023/03/01/16:58:37.692540,99,1677550560,723535882,imu_link,0,0,35.8876175,127.1663001,67.561,"(0.36, 0.0, 0.0, 0.0, 0.36, 0.0, 0.0, 0.0, 0.8949160000000002)",2
2023/03/01/16:58:37.890067,100,1677550560,969095039,imu_link,0,0,35.887658699999996,127.1662461,67.409,"(0.358801, 0.0, 0.0, 0.0, 0.358801, 0.0, 0.0, 0.0, 0.8892490000000001)",2
2023/03/01/16:58:38.380622,101,1677550561,223534054,imu_link,0,0,35.8876997,127.16619209999999,67.25,"(0.356409, 0.0, 0.0, 0.0, 0.356409, 0.0, 0.0, 0.0, 0.8836000000000002)",2
2023/03/01/16:58:38.816292,102,1677550561,471606124,imu_link,0,0,35.887741,127.16613819999999,67.13,"(0.355216, 0.0, 0.0, 0.0, 0.355216, 0.0, 0.0, 0.0, 0.8779690000000001)",2
2023/03/01/16:58:40.666550,103,1677550562,975986105,imu_link,0,0,35.8879905,127.16581509999999,66.352,"(0.351649, 0.0, 0.0, 0.0, 0.351649, 0.0, 0.0, 0.0, 0.8537760000000001)",2
2023/03/01/16:58:41.681475,104,1677550564,476689921,imu_link,0,0,35.8882452,127.1654997,65.644,"(0.34928099999999995, 0.0, 0.0, 0.0, 0.34928099999999995, 0.0, 0.0, 0.0, 0.835396)",2
2023/03/01/16:58:41.993803,105,1677550564,976274414,imu_link,0,0,35.8883316,127.16539739999999,65.46600000000001,"(0.34809999999999997, 0.0, 0.0, 0.0, 0.34809999999999997, 0.0, 0.0, 0.0, 0.8244640000000001)",2
2023/03/01/16:58:43.042272,106,1677550565,975402682,imu_link,0,0,35.8885062,127.16520009999999,65.205,"(0.34456899999999996, 0.0, 0.0, 0.0, 0.34456899999999996, 0.0, 0.0, 0.0, 0.8028160000000001)",2
2023/03/01/16:58:43.816432,107,1677550566,724830730,imu_link,0,0,35.888638,127.1650578,65.031,"(0.34105599999999997, 0.0, 0.0, 0.0, 0.34105599999999997, 0.0, 0.0, 0.0, 0.784996)",2
2023/03/01/16:58:43.891680,108,1677550566,977065081,imu_link,0,0,35.888681999999996,127.16501129999999,64.99,"(0.33872399999999997, 0.0, 0.0, 0.0, 0.33872399999999997, 0.0, 0.0, 0.0, 0.7779240000000001)",2
2023/03/01/16:58:44.664725,109,1677550567,471541676,imu_link,0,0,35.88877,127.1649199,64.91,"(0.33524099999999996, 0.0, 0.0, 0.0, 0.33524099999999996, 0.0, 0.0, 0.0, 0.763876)",2
2023/03/01/16:58:44.720601,110,1677550567,727075890,imu_link,0,0,35.8888138,127.1648747,64.884,"(0.33408399999999994, 0.0, 0.0, 0.0, 0.33408399999999994, 0.0, 0.0, 0.0, 0.7569)",2
2023/03/01/16:58:44.955077,111,1677550567,971303658,imu_link,0,0,35.8888576,127.1648299,64.869,"(0.332929, 0.0, 0.0, 0.0, 0.332929, 0.0, 0.0, 0.0, 0.749956)",2
2023/03/01/16:58:45.578250,112,1677550568,470930185,imu_link,0,0,35.8889451,127.16474079999999,64.845,"(0.33062500000000006, 0.0, 0.0, 0.0, 0.33062500000000006, 0.0, 0.0, 0.0, 0.7395999999999999)",2
2023/03/01/16:58:45.893706,113,1677550568,970575650,imu_link,0,0,35.8890326,127.1646524,64.82000000000001,"(0.3283290000000001, 0.0, 0.0, 0.0, 0.3283290000000001, 0.0, 0.0, 0.0, 0.7327359999999999)",2
2023/03/01/16:58:46.693218,114,1677550569,721238074,imu_link,0,0,35.8891644,127.16452129999999,64.88,"(0.33062500000000006, 0.0, 0.0, 0.0, 0.33062500000000006, 0.0, 0.0, 0.0, 0.729316)",2
2023/03/01/16:58:47.782124,115,1677550570,720962558,imu_link,0,0,35.8893408,127.1643483,64.989,"(0.33177600000000007, 0.0, 0.0, 0.0, 0.33177600000000007, 0.0, 0.0, 0.0, 0.725904)",2
2023/03/01/16:58:48.899128,116,1677550571,972863907,imu_link,0,0,35.889564299999996,127.164138,65.166,"(0.3283290000000001, 0.0, 0.0, 0.0, 0.3283290000000001, 0.0, 0.0, 0.0, 0.7140249999999999)",2
2023/03/01/16:58:49.488043,117,1677550572,470704730,imu_link,0,0,35.889653599999995,127.1640547,65.228,"(0.3283290000000001, 0.0, 0.0, 0.0, 0.3283290000000001, 0.0, 0.0, 0.0, 0.712336)",2
2023/03/01/16:58:49.688790,118,1677550572,724181742,imu_link,0,0,35.8896981,127.16401309999999,65.273,"(0.3283290000000001, 0.0, 0.0, 0.0, 0.3283290000000001, 0.0, 0.0, 0.0, 0.712336)",2
2023/03/01/16:58:50.499588,119,1677550573,471080608,imu_link,0,0,35.8898296,127.1638888,65.399,"(0.3283290000000001, 0.0, 0.0, 0.0, 0.3283290000000001, 0.0, 0.0, 0.0, 0.710649)",2
2023/03/01/16:58:50.691308,120,1677550573,721493681,imu_link,0,0,35.8898728,127.16384799999999,65.46300000000001,"(0.3283290000000001, 0.0, 0.0, 0.0, 0.3283290000000001, 0.0, 0.0, 0.0, 0.7089639999999999)",2
2023/03/01/16:58:52.691124,121,1677550575,721579178,imu_link,0,0,35.8902107,127.1635311,65.928,"(0.3294760000000001, 0.0, 0.0, 0.0, 0.3294760000000001, 0.0, 0.0, 0.0, 0.695556)",2
2023/03/01/16:58:53.792045,122,1677550576,721220564,imu_link,0,0,35.8903763,127.1633772,66.116,"(0.33062500000000006, 0.0, 0.0, 0.0, 0.33062500000000006, 0.0, 0.0, 0.0, 0.6839290000000001)",2
2023/03/01/16:58:55.307699,123,1677550577,470710276,imu_link,0,0,35.890499999999996,127.16326249999999,66.29,"(0.33062500000000006, 0.0, 0.0, 0.0, 0.33062500000000006, 0.0, 0.0, 0.0, 0.6773290000000001)",2
2023/03/01/16:58:57.519285,124,1677550579,723852611,imu_link,0,0,35.8908698,127.1629167,66.798,"(0.332929, 0.0, 0.0, 0.0, 0.332929, 0.0, 0.0, 0.0, 0.670761)",2
2023/03/01/16:58:57.679142,125,1677550579,973231637,imu_link,0,0,35.890910999999996,127.1628782,66.855,"(0.332929, 0.0, 0.0, 0.0, 0.332929, 0.0, 0.0, 0.0, 0.670761)",2
2023/03/01/16:58:57.849595,126,1677550580,221149562,imu_link,0,0,35.890952399999996,127.16283969999999,66.908,"(0.332929, 0.0, 0.0, 0.0, 0.332929, 0.0, 0.0, 0.0, 0.670761)",2
2023/03/01/16:58:59.529714,127,1677550582,473054603,imu_link,0,0,35.891331799999996,127.162488,67.349,"(0.33062500000000006, 0.0, 0.0, 0.0, 0.33062500000000006, 0.0, 0.0, 0.0, 0.669124)",2
2023/03/01/16:58:59.713269,128,1677550582,723259208,imu_link,0,0,35.891374899999995,127.16244789999999,67.409,"(0.33062500000000006, 0.0, 0.0, 0.0, 0.33062500000000006, 0.0, 0.0, 0.0, 0.669124)",2
2023/03/01/16:58:59.913692,129,1677550582,970737559,imu_link,0,0,35.8914185,127.1624078,67.47,"(0.3294760000000001, 0.0, 0.0, 0.0, 0.3294760000000001, 0.0, 0.0, 0.0, 0.6674890000000001)",2
2023/03/01/16:59:00.518965,130,1677550583,476389828,imu_link,0,0,35.891506799999995,127.1623264,67.539,"(0.33062500000000006, 0.0, 0.0, 0.0, 0.33062500000000006, 0.0, 0.0, 0.0, 0.6674890000000001)",2
2023/03/01/16:59:00.719163,131,1677550583,723594636,imu_link,0,0,35.891551299999996,127.16228539999999,67.59100000000001,"(0.33062500000000006, 0.0, 0.0, 0.0, 0.33062500000000006, 0.0, 0.0, 0.0, 0.669124)",2
2023/03/01/16:59:01.709382,132,1677550584,723049162,imu_link,0,0,35.891731899999996,127.16211759999999,67.76,"(0.33062500000000006, 0.0, 0.0, 0.0, 0.33062500000000006, 0.0, 0.0, 0.0, 0.669124)",2
2023/03/01/16:59:01.926051,133,1677550584,973251008,imu_link,0,0,35.8917776,127.16207499999999,67.819,"(0.33062500000000006, 0.0, 0.0, 0.0, 0.33062500000000006, 0.0, 0.0, 0.0, 0.669124)",2
2023/03/01/16:59:02.709095,134,1677550585,723257613,imu_link,0,0,35.8919157,127.16194569999999,68.003,"(0.33062500000000006, 0.0, 0.0, 0.0, 0.33062500000000006, 0.0, 0.0, 0.0, 0.6674890000000001)",2
2023/03/01/16:59:03.380333,135,1677550586,223602478,imu_link,0,0,35.8920087,127.16185829999999,68.098,"(0.3294760000000001, 0.0, 0.0, 0.0, 0.3294760000000001, 0.0, 0.0, 0.0, 0.6658560000000001)",2
2023/03/01/16:59:03.541945,136,1677550586,473717599,imu_link,0,0,35.8920555,127.1618144,68.14,"(0.33062500000000006, 0.0, 0.0, 0.0, 0.33062500000000006, 0.0, 0.0, 0.0, 0.6674890000000001)",2
2023/03/01/16:59:04.355402,137,1677550587,220477598,imu_link,0,0,35.8921967,127.16168239999999,68.311,"(0.33062500000000006, 0.0, 0.0, 0.0, 0.33062500000000006, 0.0, 0.0, 0.0, 0.670761)",2
2023/03/01/16:59:04.763601,138,1677550587,720626609,imu_link,0,0,35.8922913,127.1615942,68.423,"(0.33062500000000006, 0.0, 0.0, 0.0, 0.33062500000000006, 0.0, 0.0, 0.0, 0.6756840000000001)",2
2023/03/01/16:59:05.565141,139,1677550588,475253954,imu_link,0,0,35.8924331,127.16146189999999,68.513,"(0.33756099999999994, 0.0, 0.0, 0.0, 0.33756099999999994, 0.0, 0.0, 0.0, 0.6872410000000001)",2
2023/03/01/16:59:05.752179,140,1677550588,718602068,imu_link,0,0,35.8924805,127.16141739999999,68.559,"(0.33872399999999997, 0.0, 0.0, 0.0, 0.33872399999999997, 0.0, 0.0, 0.0, 0.6905610000000001)",2
2023/03/01/16:59:07.148744,141,1677550589,718304160,imu_link,0,0,35.8926704,127.1612382,68.781,"(0.34456899999999996, 0.0, 0.0, 0.0, 0.34456899999999996, 0.0, 0.0, 0.0, 0.700569)",2
2023/03/01/16:59:08.646087,142,1677550591,470795716,imu_link,0,0,35.8930034,127.1609187,69.165,"(0.34809999999999997, 0.0, 0.0, 0.0, 0.34809999999999997, 0.0, 0.0, 0.0, 0.7039209999999999)",2
2023/03/01/16:59:08.838662,143,1677550591,720414426,imu_link,0,0,35.8930508,127.1608722,69.229,"(0.34809999999999997, 0.0, 0.0, 0.0, 0.34809999999999997, 0.0, 0.0, 0.0, 0.7039209999999999)",2
2023/03/01/16:59:09.882301,144,1677550592,723868629,imu_link,0,0,35.893239099999995,127.1606838,69.462,"(0.34809999999999997, 0.0, 0.0, 0.0, 0.34809999999999997, 0.0, 0.0, 0.0, 0.7039209999999999)",2
2023/03/01/16:59:11.206151,145,1677550593,968541342,imu_link,0,0,35.8934716,127.16044339999999,69.747,"(0.351649, 0.0, 0.0, 0.0, 0.351649, 0.0, 0.0, 0.0, 0.712336)",2
2023/03/01/16:59:11.676741,146,1677550594,473477142,imu_link,0,0,35.893563799999995,127.1603456,69.88,"(0.356409, 0.0, 0.0, 0.0, 0.356409, 0.0, 0.0, 0.0, 0.7208009999999999)",2
2023/03/01/16:59:11.916329,147,1677550594,716073833,imu_link,0,0,35.8936097,127.1602964,69.94500000000001,"(0.358801, 0.0, 0.0, 0.0, 0.358801, 0.0, 0.0, 0.0, 0.725904)",2
2023/03/01/16:59:12.748559,148,1677550595,470948794,imu_link,0,0,35.8937467,127.16014799999999,70.117,"(0.366025, 0.0, 0.0, 0.0, 0.366025, 0.0, 0.0, 0.0, 0.734449)",2
2023/03/01/16:59:12.991638,149,1677550595,720806185,imu_link,0,0,35.8937921,127.1600984,70.158,"(0.36844899999999997, 0.0, 0.0, 0.0, 0.36844899999999997, 0.0, 0.0, 0.0, 0.7395999999999999)",2
2023/03/01/16:59:14.887299,150,1677550597,723066016,imu_link,0,0,35.8941498,127.15969319999999,70.497,"(0.386884, 0.0, 0.0, 0.0, 0.386884, 0.0, 0.0, 0.0, 0.781456)",2
2023/03/01/16:59:15.694921,151,1677550598,468452656,imu_link,0,0,35.8942804,127.1595368,70.584,"(0.388129, 0.0, 0.0, 0.0, 0.388129, 0.0, 0.0, 0.0, 0.7921)",2
2023/03/01/16:59:15.881608,152,1677550598,718128652,imu_link,0,0,35.8943237,127.15948399999999,70.669,"(0.389376, 0.0, 0.0, 0.0, 0.389376, 0.0, 0.0, 0.0, 0.7938810000000001)",2
2023/03/01/16:59:16.695144,153,1677550599,471118789,imu_link,0,0,35.894453399999996,127.1593255,70.71600000000001,"(0.389376, 0.0, 0.0, 0.0, 0.389376, 0.0, 0.0, 0.0, 0.7992360000000001)",2
2023/03/01/16:59:17.867458,154,1677550600,717222183,imu_link,0,0,35.8946681,127.15905869999999,70.902,"(0.389376, 0.0, 0.0, 0.0, 0.389376, 0.0, 0.0, 0.0, 0.7974490000000001)",2
2023/03/01/16:59:18.616180,155,1677550601,471131213,imu_link,0,0,35.8947961,127.1588965,71.068,"(0.388129, 0.0, 0.0, 0.0, 0.388129, 0.0, 0.0, 0.0, 0.7938810000000001)",2
2023/03/01/16:59:18.818790,156,1677550601,722425352,imu_link,0,0,35.8948386,127.1588422,71.119,"(0.388129, 0.0, 0.0, 0.0, 0.388129, 0.0, 0.0, 0.0, 0.7921)",2
2023/03/01/16:59:19.014399,157,1677550601,970617406,imu_link,0,0,35.8948807,127.1587876,71.151,"(0.386884, 0.0, 0.0, 0.0, 0.386884, 0.0, 0.0, 0.0, 0.790321)",2
2023/03/01/16:59:19.612291,158,1677550602,467441776,imu_link,0,0,35.8949646,127.15867779999999,71.268,"(0.388129, 0.0, 0.0, 0.0, 0.388129, 0.0, 0.0, 0.0, 0.790321)",2
2023/03/01/16:59:19.916682,159,1677550602,718183447,imu_link,0,0,35.8950065,127.1586226,71.324,"(0.388129, 0.0, 0.0, 0.0, 0.388129, 0.0, 0.0, 0.0, 0.790321)",2
2023/03/01/16:59:21.780045,160,1677550604,720843830,imu_link,0,0,35.8953328,127.15817489999999,71.681,"(0.383161, 0.0, 0.0, 0.0, 0.383161, 0.0, 0.0, 0.0, 0.790321)",2
2023/03/01/16:59:21.986604,161,1677550604,970748603,imu_link,0,0,35.895372699999996,127.15811799999999,71.731,"(0.381924, 0.0, 0.0, 0.0, 0.381924, 0.0, 0.0, 0.0, 0.788544)",2
2023/03/01/16:59:22.754355,162,1677550605,470358496,imu_link,0,0,35.8954518,127.1580037,71.816,"(0.379456, 0.0, 0.0, 0.0, 0.379456, 0.0, 0.0, 0.0, 0.786769)",2
2023/03/01/16:59:22.906087,163,1677550605,723454244,imu_link,0,0,35.895491199999995,127.15794629999999,71.85000000000001,"(0.379456, 0.0, 0.0, 0.0, 0.379456, 0.0, 0.0, 0.0, 0.786769)",2
2023/03/01/16:59:22.980489,164,1677550605,973094726,imu_link,0,0,35.8955306,127.157889,71.887,"(0.379456, 0.0, 0.0, 0.0, 0.379456, 0.0, 0.0, 0.0, 0.788544)",2
2023/03/01/16:59:23.326934,165,1677550606,222962006,imu_link,0,0,35.8955699,127.1578315,71.92,"(0.378225, 0.0, 0.0, 0.0, 0.378225, 0.0, 0.0, 0.0, 0.786769)",2
2023/03/01/16:59:23.538251,166,1677550606,468241678,imu_link,0,0,35.8956091,127.1577739,71.96000000000001,"(0.378225, 0.0, 0.0, 0.0, 0.378225, 0.0, 0.0, 0.0, 0.7832250000000001)",2
2023/03/01/16:59:23.768347,167,1677550606,720614626,imu_link,0,0,35.8956482,127.1577162,72.015,"(0.376996, 0.0, 0.0, 0.0, 0.376996, 0.0, 0.0, 0.0, 0.779689)",2
2023/03/01/16:59:24.764334,168,1677550607,714790044,imu_link,0,0,35.8958033,127.15748389999999,72.19800000000001,"(0.374544, 0.0, 0.0, 0.0, 0.374544, 0.0, 0.0, 0.0, 0.772641)",2
2023/03/01/16:59:25.662732,169,1677550608,220181333,imu_link,0,0,35.8958799,127.1573667,72.244,"(0.37088099999999996, 0.0, 0.0, 0.0, 0.37088099999999996, 0.0, 0.0, 0.0, 0.770884)",2
2023/03/01/16:59:25.957258,170,1677550608,970541474,imu_link,0,0,35.895993,127.15718919999999,72.365,"(0.369664, 0.0, 0.0, 0.0, 0.369664, 0.0, 0.0, 0.0, 0.7744)",2
2023/03/01/16:59:26.549160,171,1677550609,470163756,imu_link,0,0,35.8960673,127.1570701,72.461,"(0.369664, 0.0, 0.0, 0.0, 0.369664, 0.0, 0.0, 0.0, 0.7779240000000001)",2
2023/03/01/16:59:26.782325,172,1677550609,720791264,imu_link,0,0,35.896104,127.15701059999999,72.546,"(0.369664, 0.0, 0.0, 0.0, 0.369664, 0.0, 0.0, 0.0, 0.779689)",2
2023/03/01/16:59:27.035356,173,1677550609,970049495,imu_link,0,0,35.8961405,127.15695099999999,72.69,"(0.36844899999999997, 0.0, 0.0, 0.0, 0.36844899999999997, 0.0, 0.0, 0.0, 0.779689)",2
2023/03/01/16:59:27.740287,174,1677550610,720459168,imu_link,0,0,35.896248299999996,127.1567719,72.846,"(0.367236, 0.0, 0.0, 0.0, 0.367236, 0.0, 0.0, 0.0, 0.779689)",2
2023/03/01/16:59:28.531760,175,1677550611,470922628,imu_link,0,0,35.8963542,127.1565931,72.978,"(0.36240399999999995, 0.0, 0.0, 0.0, 0.36240399999999995, 0.0, 0.0, 0.0, 0.779689)",2
2023/03/01/16:59:28.742800,176,1677550611,719916886,imu_link,0,0,35.8963892,127.1565335,73.021,"(0.361201, 0.0, 0.0, 0.0, 0.361201, 0.0, 0.0, 0.0, 0.7779240000000001)",2
2023/03/01/16:59:29.863798,177,1677550612,720873080,imu_link,0,0,35.8965263,127.1562929,73.227,"(0.355216, 0.0, 0.0, 0.0, 0.355216, 0.0, 0.0, 0.0, 0.772641)",2
2023/03/01/16:59:30.511454,178,1677550613,470701904,imu_link,0,0,35.8966251,127.1561079,73.306,"(0.35046399999999994, 0.0, 0.0, 0.0, 0.35046399999999994, 0.0, 0.0, 0.0, 0.767376)",2
2023/03/01/16:59:30.707121,179,1677550613,719943034,imu_link,0,0,35.8966572,127.15604529999999,73.32000000000001,"(0.34928099999999995, 0.0, 0.0, 0.0, 0.34928099999999995, 0.0, 0.0, 0.0, 0.767376)",2
2023/03/01/16:59:30.910985,180,1677550613,972184558,imu_link,0,0,35.8966889,127.1559825,73.322,"(0.34928099999999995, 0.0, 0.0, 0.0, 0.34928099999999995, 0.0, 0.0, 0.0, 0.767376)",2
2023/03/01/16:59:31.602287,181,1677550614,473157643,imu_link,0,0,35.8967518,127.1558563,73.425,"(0.346921, 0.0, 0.0, 0.0, 0.346921, 0.0, 0.0, 0.0, 0.767376)",2
2023/03/01/16:59:31.690870,182,1677550614,720471256,imu_link,0,0,35.8967829,127.1557931,73.443,"(0.34574399999999994, 0.0, 0.0, 0.0, 0.34574399999999994, 0.0, 0.0, 0.0, 0.767376)",2
2023/03/01/16:59:32.886342,183,1677550615,970230815,imu_link,0,0,35.8969392,127.1554764,73.47500000000001,"(0.34105599999999997, 0.0, 0.0, 0.0, 0.34105599999999997, 0.0, 0.0, 0.0, 0.769129)",2
2023/03/01/16:59:33.693057,184,1677550616,720450598,imu_link,0,0,35.8970334,127.15528579999999,73.473,"(0.33988899999999994, 0.0, 0.0, 0.0, 0.33988899999999994, 0.0, 0.0, 0.0, 0.769129)",2
2023/03/01/16:59:33.900983,185,1677550616,970682839,imu_link,0,0,35.897064799999995,127.15522209999999,73.464,"(0.33988899999999994, 0.0, 0.0, 0.0, 0.33988899999999994, 0.0, 0.0, 0.0, 0.769129)",2
2023/03/01/16:59:34.688947,186,1677550617,722747462,imu_link,0,0,35.8971595,127.15503059999999,73.351,"(0.33988899999999994, 0.0, 0.0, 0.0, 0.33988899999999994, 0.0, 0.0, 0.0, 0.770884)",2
2023/03/01/16:59:34.885959,187,1677550617,970070761,imu_link,0,0,35.8971908,127.1549666,73.31700000000001,"(0.33872399999999997, 0.0, 0.0, 0.0, 0.33872399999999997, 0.0, 0.0, 0.0, 0.770884)",2
2023/03/01/16:59:35.346629,188,1677550618,220133413,imu_link,0,0,35.8972221,127.1549026,73.27,"(0.33872399999999997, 0.0, 0.0, 0.0, 0.33872399999999997, 0.0, 0.0, 0.0, 0.770884)",2
2023/03/01/16:59:35.499214,189,1677550618,472598718,imu_link,0,0,35.8972531,127.15483839999999,73.233,"(0.33872399999999997, 0.0, 0.0, 0.0, 0.33872399999999997, 0.0, 0.0, 0.0, 0.769129)",2
2023/03/01/16:59:37.798057,190,1677550620,717623568,imu_link,0,0,35.8975241,127.1542557,72.83,"(0.332929, 0.0, 0.0, 0.0, 0.332929, 0.0, 0.0, 0.0, 0.765625)",2
2023/03/01/16:59:37.887918,191,1677550620,972995258,imu_link,0,0,35.897553099999996,127.15419019999999,72.761,"(0.332929, 0.0, 0.0, 0.0, 0.332929, 0.0, 0.0, 0.0, 0.765625)",2
2023/03/01/16:59:38.285214,192,1677550621,220457810,imu_link,0,0,35.8975821,127.15412459999999,72.71000000000001,"(0.332929, 0.0, 0.0, 0.0, 0.332929, 0.0, 0.0, 0.0, 0.765625)",2
2023/03/01/16:59:38.525156,193,1677550621,470421234,imu_link,0,0,35.897610799999995,127.15405879999999,72.643,"(0.33177600000000007, 0.0, 0.0, 0.0, 0.33177600000000007, 0.0, 0.0, 0.0, 0.767376)",2
2023/03/01/16:59:38.686706,194,1677550621,722043687,imu_link,0,0,35.8976393,127.1539926,72.556,"(0.332929, 0.0, 0.0, 0.0, 0.332929, 0.0, 0.0, 0.0, 0.769129)",2
2023/03/01/16:59:39.891212,195,1677550622,969928223,imu_link,0,0,35.8977802,127.15366019999999,72.09100000000001,"(0.33524099999999996, 0.0, 0.0, 0.0, 0.33524099999999996, 0.0, 0.0, 0.0, 0.7832250000000001)",2
2023/03/01/16:59:40.490069,196,1677550623,472926940,imu_link,0,0,35.897835799999996,127.15352569999999,71.904,"(0.33756099999999994, 0.0, 0.0, 0.0, 0.33756099999999994, 0.0, 0.0, 0.0, 0.795664)",2
2023/03/01/16:59:40.700860,197,1677550623,722399548,imu_link,0,0,35.897863099999995,127.15345839999999,71.801,"(0.33872399999999997, 0.0, 0.0, 0.0, 0.33872399999999997, 0.0, 0.0, 0.0, 0.8028160000000001)",2
2023/03/01/16:59:40.885107,198,1677550623,972676730,imu_link,0,0,35.8978904,127.15339119999999,71.708,"(0.33872399999999997, 0.0, 0.0, 0.0, 0.33872399999999997, 0.0, 0.0, 0.0, 0.806404)",2
2023/03/01/16:59:41.500788,199,1677550624,473816704,imu_link,0,0,35.897943999999995,127.153256,71.507,"(0.33988899999999994, 0.0, 0.0, 0.0, 0.33988899999999994, 0.0, 0.0, 0.0, 0.811801)",2
2023/03/01/16:59:42.689160,200,1677550625,723021320,imu_link,0,0,35.898075399999996,127.1529145,70.91,"(0.34105599999999997, 0.0, 0.0, 0.0, 0.34105599999999997, 0.0, 0.0, 0.0, 0.8244640000000001)",2
2023/03/01/16:59:43.894791,201,1677550626,969733648,imu_link,0,0,35.8982035,127.152571,70.29,"(0.34105599999999997, 0.0, 0.0, 0.0, 0.34105599999999997, 0.0, 0.0, 0.0, 0.831744)",2
2023/03/01/16:59:44.489883,202,1677550627,475422761,imu_link,0,0,35.8982542,127.1524331,70.01,"(0.34222499999999995, 0.0, 0.0, 0.0, 0.34222499999999995, 0.0, 0.0, 0.0, 0.8335690000000001)",2
2023/03/01/16:59:44.689954,203,1677550627,720035353,imu_link,0,0,35.8982795,127.1523641,69.855,"(0.34222499999999995, 0.0, 0.0, 0.0, 0.34222499999999995, 0.0, 0.0, 0.0, 0.831744)",2
2023/03/01/16:59:46.773224,204,1677550629,719716851,imu_link,0,0,35.898480299999996,127.1518112,68.561,"(0.34574399999999994, 0.0, 0.0, 0.0, 0.34574399999999994, 0.0, 0.0, 0.0, 0.8408890000000001)",2
2023/03/01/16:59:46.890114,205,1677550629,970157813,imu_link,0,0,35.8985053,127.15174189999999,68.376,"(0.346921, 0.0, 0.0, 0.0, 0.346921, 0.0, 0.0, 0.0, 0.8445610000000001)",2
2023/03/01/16:59:47.505414,206,1677550630,472422157,imu_link,0,0,35.8985552,127.15160359999999,68.08500000000001,"(0.34809999999999997, 0.0, 0.0, 0.0, 0.34809999999999997, 0.0, 0.0, 0.0, 0.8537760000000001)",2
2023/03/01/16:59:47.831750,207,1677550630,719997017,imu_link,0,0,35.898579999999995,127.1515345,67.927,"(0.34928099999999995, 0.0, 0.0, 0.0, 0.34928099999999995, 0.0, 0.0, 0.0, 0.8574760000000001)",2
2023/03/01/16:59:49.293649,208,1677550632,216209778,imu_link,0,0,35.898725899999995,127.15112149999999,67.116,"(0.413449, 0.0, 0.0, 0.0, 0.413449, 0.0, 0.0, 0.0, 0.937024)",2
2023/03/01/16:59:50.691030,209,1677550633,712459404,imu_link,0,0,35.8988733,127.1507079,66.236,"(0.44488900000000003, 0.0, 0.0, 0.0, 0.44488900000000003, 0.0, 0.0, 0.0, 0.994009)",2
2023/03/01/16:59:50.902945,210,1677550633,970295677,imu_link,0,0,35.8988982,127.1506393,66.072,"(0.44488900000000003, 0.0, 0.0, 0.0, 0.44488900000000003, 0.0, 0.0, 0.0, 0.996004)",2
2023/03/01/16:59:51.292792,211,1677550634,222186098,imu_link,0,0,35.8989231,127.1505705,65.888,"(0.44622400000000007, 0.0, 0.0, 0.0, 0.44622400000000007, 0.0, 0.0, 0.0, 1.0)",2
2023/03/01/16:59:51.493798,212,1677550634,470395568,imu_link,0,0,35.8989476,127.15050169999999,65.733,"(0.44488900000000003, 0.0, 0.0, 0.0, 0.44488900000000003, 0.0, 0.0, 0.0, 1.0)",2
2023/03/01/16:59:51.784181,213,1677550634,720512404,imu_link,0,0,35.898972,127.1504329,65.574,"(0.44488900000000003, 0.0, 0.0, 0.0, 0.44488900000000003, 0.0, 0.0, 0.0, 1.0)",2
2023/03/01/16:59:53.510104,214,1677550636,470529749,imu_link,0,0,35.8991414,127.14995449999999,64.682,"(0.43956900000000004, 0.0, 0.0, 0.0, 0.43956900000000004, 0.0, 0.0, 0.0, 0.994009)",2
2023/03/01/16:59:53.688085,215,1677550636,719891574,imu_link,0,0,35.899165499999995,127.1498867,64.537,"(0.43956900000000004, 0.0, 0.0, 0.0, 0.43956900000000004, 0.0, 0.0, 0.0, 0.992016)",2
2023/03/01/16:59:54.285708,216,1677550637,219984218,imu_link,0,0,35.8992135,127.1497519,64.215,"(0.438244, 0.0, 0.0, 0.0, 0.438244, 0.0, 0.0, 0.0, 0.994009)",2
2023/03/01/16:59:54.495914,217,1677550637,469354939,imu_link,0,0,35.8992374,127.1496846,64.062,"(0.438244, 0.0, 0.0, 0.0, 0.438244, 0.0, 0.0, 0.0, 0.994009)",2
2023/03/01/16:59:54.698529,218,1677550637,722275959,imu_link,0,0,35.8992612,127.14961749999999,63.886,"(0.438244, 0.0, 0.0, 0.0, 0.438244, 0.0, 0.0, 0.0, 0.996004)",2
2023/03/01/16:59:54.893694,219,1677550637,972960228,imu_link,0,0,35.8992849,127.14955069999999,63.737,"(0.438244, 0.0, 0.0, 0.0, 0.438244, 0.0, 0.0, 0.0, 1.0)",2
2023/03/01/16:59:55.832026,220,1677550638,722726007,imu_link,0,0,35.8993563,127.1493517,63.252,"(0.44089600000000007, 0.0, 0.0, 0.0, 0.44089600000000007, 0.0, 0.0, 0.0, 1.0100250000000002)",2
2023/03/01/16:59:56.688078,221,1677550639,723129778,imu_link,0,0,35.8994516,127.1490884,62.679,"(0.44488900000000003, 0.0, 0.0, 0.0, 0.44488900000000003, 0.0, 0.0, 0.0, 1.0261690000000003)",2
2023/03/01/16:59:58.486581,222,1677550641,470433404,imu_link,0,0,35.899615499999996,127.14863439999999,61.662,"(0.44622400000000007, 0.0, 0.0, 0.0, 0.44622400000000007, 0.0, 0.0, 0.0, 1.0424410000000002)",2
2023/03/01/16:59:58.690538,223,1677550641,724854018,imu_link,0,0,35.8996385,127.14857029999999,61.498000000000005,"(0.44622400000000007, 0.0, 0.0, 0.0, 0.44622400000000007, 0.0, 0.0, 0.0, 1.0404)",2
2023/03/01/16:59:59.601887,224,1677550642,471647315,imu_link,0,0,35.8997075,127.1483789,61.021,"(0.44089600000000007, 0.0, 0.0, 0.0, 0.44089600000000007, 0.0, 0.0, 0.0, 1.0383610000000003)",2
2023/03/01/16:59:59.691645,225,1677550642,721873044,imu_link,0,0,35.8997303,127.14831559999999,60.857,"(0.438244, 0.0, 0.0, 0.0, 0.438244, 0.0, 0.0, 0.0, 1.036324)",2
2023/03/01/16:59:59.887222,226,1677550642,970678844,imu_link,0,0,35.899753,127.1482527,60.7,"(0.43692100000000006, 0.0, 0.0, 0.0, 0.43692100000000006, 0.0, 0.0, 0.0, 1.032256)",2
2023/03/01/17:00:00.294479,227,1677550643,220444397,imu_link,0,0,35.8997757,127.1481898,60.569,"(0.43428100000000003, 0.0, 0.0, 0.0, 0.43428100000000003, 0.0, 0.0, 0.0, 1.0302250000000002)",2
2023/03/01/17:00:00.496026,228,1677550643,471855840,imu_link,0,0,35.8997983,127.14812719999999,60.411,"(0.432964, 0.0, 0.0, 0.0, 0.432964, 0.0, 0.0, 0.0, 1.0261690000000003)",2
2023/03/01/17:00:00.707916,229,1677550643,725937212,imu_link,0,0,35.8998208,127.1480648,60.278,"(0.43033600000000005, 0.0, 0.0, 0.0, 0.43033600000000005, 0.0, 0.0, 0.0, 1.024144)",2
2023/03/01/17:00:01.289850,230,1677550644,222203122,imu_link,0,0,35.8998656,127.1479404,59.973,"(0.42771600000000004, 0.0, 0.0, 0.0, 0.42771600000000004, 0.0, 0.0, 0.0, 1.0221210000000003)",2
2023/03/01/17:00:01.491908,231,1677550644,470448399,imu_link,0,0,35.8998878,127.14787869999999,59.847,"(0.42771600000000004, 0.0, 0.0, 0.0, 0.42771600000000004, 0.0, 0.0, 0.0, 1.0201)",2
2023/03/01/17:00:03.020660,232,1677550645,972563680,imu_link,0,0,35.9000201,127.14750959999999,58.981,"(0.42250000000000004, 0.0, 0.0, 0.0, 0.42250000000000004, 0.0, 0.0, 0.0, 1.012036)",2
2023/03/01/17:00:03.498610,233,1677550646,472728343,imu_link,0,0,35.9000639,127.14738679999999,58.738,"(0.42120100000000005, 0.0, 0.0, 0.0, 0.42120100000000005, 0.0, 0.0, 0.0, 1.008016)",2
2023/03/01/17:00:03.698718,234,1677550646,715155023,imu_link,0,0,35.9000859,127.1473252,58.621,"(0.419904, 0.0, 0.0, 0.0, 0.419904, 0.0, 0.0, 0.0, 1.004004)",2
2023/03/01/17:00:04.492042,235,1677550647,470129810,imu_link,0,0,35.900152,127.14713979999999,58.218,"(0.41216400000000003, 0.0, 0.0, 0.0, 0.41216400000000003, 0.0, 0.0, 0.0, 0.996004)",2
2023/03/01/17:00:04.689358,236,1677550647,723257999,imu_link,0,0,35.9001741,127.1470777,58.126,"(0.4096, 0.0, 0.0, 0.0, 0.4096, 0.0, 0.0, 0.0, 0.992016)",2
2023/03/01/17:00:04.899796,237,1677550647,970120902,imu_link,0,0,35.9001964,127.14701559999999,58.035000000000004,"(0.407044, 0.0, 0.0, 0.0, 0.407044, 0.0, 0.0, 0.0, 0.990025)",2
2023/03/01/17:00:05.558105,238,1677550648,470272380,imu_link,0,0,35.9002407,127.1468912,57.884,"(0.403225, 0.0, 0.0, 0.0, 0.403225, 0.0, 0.0, 0.0, 0.9840639999999999)",2
2023/03/01/17:00:06.710621,239,1677550649,720048007,imu_link,0,0,35.9003525,127.1465779,57.45,"(0.393129, 0.0, 0.0, 0.0, 0.393129, 0.0, 0.0, 0.0, 0.972196)",2
2023/03/01/17:00:07.489066,240,1677550650,469625319,imu_link,0,0,35.9004197,127.1463881,57.259,"(0.390625, 0.0, 0.0, 0.0, 0.390625, 0.0, 0.0, 0.0, 0.966289)",2
2023/03/01/17:00:07.685051,241,1677550650,719799317,imu_link,0,0,35.9004422,127.14632449999999,57.198,"(0.388129, 0.0, 0.0, 0.0, 0.388129, 0.0, 0.0, 0.0, 0.964324)",2
2023/03/01/17:00:09.505187,242,1677550652,469804555,imu_link,0,0,35.9006031,127.14587759999999,56.887,"(0.376996, 0.0, 0.0, 0.0, 0.376996, 0.0, 0.0, 0.0, 0.954529)",2
2023/03/01/17:00:09.725310,243,1677550652,719878437,imu_link,0,0,35.9006262,127.1458138,56.858000000000004,"(0.37576899999999996, 0.0, 0.0, 0.0, 0.37576899999999996, 0.0, 0.0, 0.0, 0.952576)",2
2023/03/01/17:00:09.927659,244,1677550652,969764516,imu_link,0,0,35.9006492,127.14574999999999,56.811,"(0.37332099999999996, 0.0, 0.0, 0.0, 0.37332099999999996, 0.0, 0.0, 0.0, 0.9467289999999999)",2
2023/03/01/17:00:10.703337,245,1677550653,470314704,imu_link,0,0,35.9006952,127.14562269999999,56.742000000000004,"(0.369664, 0.0, 0.0, 0.0, 0.369664, 0.0, 0.0, 0.0, 0.9428409999999999)",2
2023/03/01/17:00:10.741681,246,1677550653,722328788,imu_link,0,0,35.9007182,127.1455592,56.717,"(0.367236, 0.0, 0.0, 0.0, 0.367236, 0.0, 0.0, 0.0, 0.9428409999999999)",2
2023/03/01/17:00:10.889658,247,1677550653,969756603,imu_link,0,0,35.900741,127.1454957,56.747,"(0.366025, 0.0, 0.0, 0.0, 0.366025, 0.0, 0.0, 0.0, 0.9409)",2
2023/03/01/17:00:12.483904,248,1677550655,470166662,imu_link,0,0,35.900875899999996,127.14511669999999,56.523,"(0.358801, 0.0, 0.0, 0.0, 0.358801, 0.0, 0.0, 0.0, 0.933156)",2
2023/03/01/17:00:13.762652,249,1677550656,475160093,imu_link,0,0,35.9009664,127.1448643,56.415,"(0.352836, 0.0, 0.0, 0.0, 0.352836, 0.0, 0.0, 0.0, 0.9292959999999999)",2
2023/03/01/17:00:14.943037,250,1677550657,722844356,imu_link,0,0,35.9010807,127.14454789999999,56.249,"(0.34809999999999997, 0.0, 0.0, 0.0, 0.34809999999999997, 0.0, 0.0, 0.0, 0.9235209999999999)",2
2023/03/01/17:00:14.967268,251,1677550657,973174921,imu_link,0,0,35.9011035,127.1444846,56.216,"(0.346921, 0.0, 0.0, 0.0, 0.346921, 0.0, 0.0, 0.0, 0.9235209999999999)",2
2023/03/01/17:00:15.892307,252,1677550658,722699965,imu_link,0,0,35.9011716,127.144295,56.15,"(0.34456899999999996, 0.0, 0.0, 0.0, 0.34456899999999996, 0.0, 0.0, 0.0, 0.9216)",2
2023/03/01/17:00:16.887648,253,1677550659,972284025,imu_link,0,0,35.9012852,127.1439783,56.025,"(0.33988899999999994, 0.0, 0.0, 0.0, 0.33988899999999994, 0.0, 0.0, 0.0, 0.9177640000000001)",2
2023/03/01/17:00:17.505782,254,1677550660,472041121,imu_link,0,0,35.9013305,127.1438515,55.968,"(0.33872399999999997, 0.0, 0.0, 0.0, 0.33872399999999997, 0.0, 0.0, 0.0, 0.9177640000000001)",2
2023/03/01/17:00:17.691293,255,1677550660,719833169,imu_link,0,0,35.901353,127.14378789999999,55.948,"(0.33872399999999997, 0.0, 0.0, 0.0, 0.33872399999999997, 0.0, 0.0, 0.0, 0.9158490000000001)",2
2023/03/01/17:00:17.896050,256,1677550660,969529462,imu_link,0,0,35.9013756,127.1437244,55.944,"(0.33756099999999994, 0.0, 0.0, 0.0, 0.33756099999999994, 0.0, 0.0, 0.0, 0.9158490000000001)",2
2023/03/01/17:00:18.490027,257,1677550661,470431095,imu_link,0,0,35.9014208,127.1435973,55.916000000000004,"(0.3364, 0.0, 0.0, 0.0, 0.3364, 0.0, 0.0, 0.0, 0.9139360000000002)",2
2023/03/01/17:00:20.692004,258,1677550663,724890560,imu_link,0,0,35.9016257,127.14302439999999,55.713,"(0.3271840000000001, 0.0, 0.0, 0.0, 0.3271840000000001, 0.0, 0.0, 0.0, 0.9025000000000001)",2
2023/03/01/17:00:20.932868,259,1677550663,972877289,imu_link,0,0,35.9016484,127.1429603,55.706,"(0.3260410000000001, 0.0, 0.0, 0.0, 0.3260410000000001, 0.0, 0.0, 0.0, 0.9025000000000001)",2
2023/03/01/17:00:21.537289,260,1677550664,469580966,imu_link,0,0,35.901693699999996,127.1428318,55.641,"(0.3237610000000001, 0.0, 0.0, 0.0, 0.3237610000000001, 0.0, 0.0, 0.0, 0.8987040000000002)",2
2023/03/01/17:00:21.725901,261,1677550664,722042902,imu_link,0,0,35.9017165,127.14276749999999,55.636,"(0.3226240000000001, 0.0, 0.0, 0.0, 0.3226240000000001, 0.0, 0.0, 0.0, 0.8987040000000002)",2
2023/03/01/17:00:21.912134,262,1677550664,971811905,imu_link,0,0,35.9017394,127.1427033,55.620000000000005,"(0.3226240000000001, 0.0, 0.0, 0.0, 0.3226240000000001, 0.0, 0.0, 0.0, 0.8968090000000001)",2
2023/03/01/17:00:22.300160,263,1677550665,225993249,imu_link,0,0,35.9017625,127.1426391,55.597,"(0.3226240000000001, 0.0, 0.0, 0.0, 0.3226240000000001, 0.0, 0.0, 0.0, 0.8949160000000002)",2
2023/03/01/17:00:22.718589,264,1677550665,473065879,imu_link,0,0,35.9017856,127.14257479999999,55.587,"(0.3214890000000001, 0.0, 0.0, 0.0, 0.3214890000000001, 0.0, 0.0, 0.0, 0.8930250000000001)",2
2023/03/01/17:00:23.954624,265,1677550666,972155680,imu_link,0,0,35.9019257,127.14218869999999,55.488,"(0.3214890000000001, 0.0, 0.0, 0.0, 0.3214890000000001, 0.0, 0.0, 0.0, 0.8854810000000001)",2
2023/03/01/17:00:24.634922,266,1677550667,469159601,imu_link,0,0,35.9019721,127.14205919999999,55.433,"(0.3203560000000001, 0.0, 0.0, 0.0, 0.3203560000000001, 0.0, 0.0, 0.0, 0.8836000000000002)",2
2023/03/01/17:00:24.943783,267,1677550667,721867867,imu_link,0,0,35.9019952,127.1419945,55.42,"(0.3203560000000001, 0.0, 0.0, 0.0, 0.3203560000000001, 0.0, 0.0, 0.0, 0.8836000000000002)",2
2023/03/01/17:00:25.010249,268,1677550667,974358113,imu_link,0,0,35.9020185,127.1419296,55.403,"(0.3192250000000001, 0.0, 0.0, 0.0, 0.3192250000000001, 0.0, 0.0, 0.0, 0.8817210000000001)",2
2023/03/01/17:00:25.620291,269,1677550668,472484653,imu_link,0,0,35.9020649,127.14179999999999,55.362,"(0.31809600000000005, 0.0, 0.0, 0.0, 0.31809600000000005, 0.0, 0.0, 0.0, 0.8817210000000001)",2
2023/03/01/17:00:25.756760,270,1677550668,722509158,imu_link,0,0,35.902088299999996,127.141735,55.347,"(0.31809600000000005, 0.0, 0.0, 0.0, 0.31809600000000005, 0.0, 0.0, 0.0, 0.8817210000000001)",2
2023/03/01/17:00:26.778146,271,1677550669,721906813,imu_link,0,0,35.902182499999995,127.14147419999999,55.276,"(0.31809600000000005, 0.0, 0.0, 0.0, 0.31809600000000005, 0.0, 0.0, 0.0, 0.8836000000000002)",2
2023/03/01/17:00:27.525970,272,1677550670,472187768,imu_link,0,0,35.9022541,127.1412775,55.208,"(0.3192250000000001, 0.0, 0.0, 0.0, 0.3192250000000001, 0.0, 0.0, 0.0, 0.8873640000000002)",2
2023/03/01/17:00:28.298835,273,1677550671,224251888,imu_link,0,0,35.9023268,127.1410798,55.132,"(0.3203560000000001, 0.0, 0.0, 0.0, 0.3203560000000001, 0.0, 0.0, 0.0, 0.8873640000000002)",2
2023/03/01/17:00:28.783986,274,1677550671,722358964,imu_link,0,0,35.9023756,127.14094759999999,55.081,"(0.3192250000000001, 0.0, 0.0, 0.0, 0.3192250000000001, 0.0, 0.0, 0.0, 0.8930250000000001)",2
2023/03/01/17:00:29.690545,275,1677550672,714434892,imu_link,0,0,35.902474999999995,127.14068289999999,55.027,"(0.3192250000000001, 0.0, 0.0, 0.0, 0.3192250000000001, 0.0, 0.0, 0.0, 0.9006010000000001)",2
2023/03/01/17:00:30.690376,276,1677550673,719114142,imu_link,0,0,35.9025777,127.140419,54.911,"(0.31809600000000005, 0.0, 0.0, 0.0, 0.31809600000000005, 0.0, 0.0, 0.0, 0.9082090000000002)",2
2023/03/01/17:00:30.890204,277,1677550673,969069016,imu_link,0,0,35.9026041,127.14035319999999,54.877,"(0.31809600000000005, 0.0, 0.0, 0.0, 0.31809600000000005, 0.0, 0.0, 0.0, 0.9082090000000002)",2
2023/03/01/17:00:31.292866,278,1677550674,219129647,imu_link,0,0,35.902630699999996,127.1402875,54.837,"(0.31809600000000005, 0.0, 0.0, 0.0, 0.31809600000000005, 0.0, 0.0, 0.0, 0.9101160000000001)",2
2023/03/01/17:00:31.531687,279,1677550674,471795580,imu_link,0,0,35.9026577,127.1402219,54.815,"(0.31809600000000005, 0.0, 0.0, 0.0, 0.31809600000000005, 0.0, 0.0, 0.0, 0.9120250000000001)",2
2023/03/01/17:00:32.494267,280,1677550675,471714049,imu_link,0,0,35.902768099999996,127.13995999999999,54.741,"(0.31809600000000005, 0.0, 0.0, 0.0, 0.31809600000000005, 0.0, 0.0, 0.0, 0.9139360000000002)",2
2023/03/01/17:00:32.897485,281,1677550675,971493159,imu_link,0,0,35.902825,127.13982969999999,54.662,"(0.31696900000000006, 0.0, 0.0, 0.0, 0.31696900000000006, 0.0, 0.0, 0.0, 0.9101160000000001)",2
2023/03/01/17:00:33.745586,282,1677550676,473230718,imu_link,0,0,35.902882399999996,127.1396996,54.592,"(0.31584400000000007, 0.0, 0.0, 0.0, 0.31584400000000007, 0.0, 0.0, 0.0, 0.9025000000000001)",2
2023/03/01/17:00:33.905720,283,1677550676,722288708,imu_link,0,0,35.9029113,127.13963469999999,54.549,"(0.31584400000000007, 0.0, 0.0, 0.0, 0.31584400000000007, 0.0, 0.0, 0.0, 0.9006010000000001)",2
2023/03/01/17:00:34.309758,284,1677550677,222231304,imu_link,0,0,35.9029692,127.13950519999999,54.488,"(0.31584400000000007, 0.0, 0.0, 0.0, 0.31584400000000007, 0.0, 0.0, 0.0, 0.8949160000000002)",2
2023/03/01/17:00:34.773403,285,1677550677,725333305,imu_link,0,0,35.9030273,127.13937609999999,54.423,"(0.31584400000000007, 0.0, 0.0, 0.0, 0.31584400000000007, 0.0, 0.0, 0.0, 0.8949160000000002)",2
2023/03/01/17:00:36.879486,286,1677550679,721410859,imu_link,0,0,35.9032644,127.1388669,54.159,"(0.31809600000000005, 0.0, 0.0, 0.0, 0.31809600000000005, 0.0, 0.0, 0.0, 0.9063040000000001)",2
2023/03/01/17:00:37.616359,287,1677550680,469684855,imu_link,0,0,35.9033562,127.1386788,54.084,"(0.31809600000000005, 0.0, 0.0, 0.0, 0.31809600000000005, 0.0, 0.0, 0.0, 0.9101160000000001)",2
2023/03/01/17:00:37.691992,288,1677550680,719015937,imu_link,0,0,35.903386999999995,127.13861639999999,54.043,"(0.3192250000000001, 0.0, 0.0, 0.0, 0.3192250000000001, 0.0, 0.0, 0.0, 0.9120250000000001)",2
2023/03/01/17:00:38.704377,289,1677550681,722040786,imu_link,0,0,35.9035115,127.13836819999999,53.748000000000005,"(0.3214890000000001, 0.0, 0.0, 0.0, 0.3214890000000001, 0.0, 0.0, 0.0, 0.9177640000000001)",2
2023/03/01/17:00:39.789829,290,1677550682,719739894,imu_link,0,0,35.9036392,127.13812259999999,53.717,"(0.3214890000000001, 0.0, 0.0, 0.0, 0.3214890000000001, 0.0, 0.0, 0.0, 0.9139360000000002)",2
2023/03/01/17:00:40.311707,291,1677550683,219532918,imu_link,0,0,35.9037042,127.1380011,53.715,"(0.3214890000000001, 0.0, 0.0, 0.0, 0.3214890000000001, 0.0, 0.0, 0.0, 0.9120250000000001)",2
2023/03/01/17:00:40.801667,292,1677550683,719631697,imu_link,0,0,35.903769499999996,127.1378805,53.67,"(0.3214890000000001, 0.0, 0.0, 0.0, 0.3214890000000001, 0.0, 0.0, 0.0, 0.9082090000000002)",2
2023/03/01/17:00:41.580502,293,1677550684,468982822,imu_link,0,0,35.9038677,127.1377007,53.698,"(0.3203560000000001, 0.0, 0.0, 0.0, 0.3203560000000001, 0.0, 0.0, 0.0, 0.9063040000000001)",2
2023/03/01/17:00:41.855652,294,1677550684,719161515,imu_link,0,0,35.9039006,127.1376409,53.709,"(0.3192250000000001, 0.0, 0.0, 0.0, 0.3192250000000001, 0.0, 0.0, 0.0, 0.9063040000000001)",2
2023/03/01/17:00:41.967664,295,1677550684,969376082,imu_link,0,0,35.903933599999995,127.1375813,53.715,"(0.3192250000000001, 0.0, 0.0, 0.0, 0.3192250000000001, 0.0, 0.0, 0.0, 0.9063040000000001)",2
2023/03/01/17:00:42.658180,296,1677550685,469185821,imu_link,0,0,35.9040001,127.13746259999999,53.713,"(0.3192250000000001, 0.0, 0.0, 0.0, 0.3192250000000001, 0.0, 0.0, 0.0, 0.9063040000000001)",2
2023/03/01/17:00:42.825026,297,1677550685,716570440,imu_link,0,0,35.9040337,127.13740349999999,53.699,"(0.3192250000000001, 0.0, 0.0, 0.0, 0.3192250000000001, 0.0, 0.0, 0.0, 0.9082090000000002)",2
2023/03/01/17:00:43.649222,298,1677550686,468906654,imu_link,0,0,35.9041358,127.1372277,53.707,"(0.3203560000000001, 0.0, 0.0, 0.0, 0.3203560000000001, 0.0, 0.0, 0.0, 0.9139360000000002)",2
2023/03/01/17:00:44.930055,299,1677550687,722103974,imu_link,0,0,35.904308,127.13693909999999,53.861000000000004,"(0.3237610000000001, 0.0, 0.0, 0.0, 0.3237610000000001, 0.0, 0.0, 0.0, 0.9101160000000001)",2
2023/03/01/17:00:46.012310,300,1677550688,719016059,imu_link,0,0,35.9044488,127.1367114,53.902,"(0.3214890000000001, 0.0, 0.0, 0.0, 0.3214890000000001, 0.0, 0.0, 0.0, 0.9044010000000001)",2
2023/03/01/17:00:46.242651,301,1677550688,969684534,imu_link,0,0,35.9044843,127.1366549,53.938,"(0.3214890000000001, 0.0, 0.0, 0.0, 0.3214890000000001, 0.0, 0.0, 0.0, 0.9025000000000001)",2
2023/03/01/17:00:46.994617,302,1677550689,721525166,imu_link,0,0,35.904591499999995,127.1364861,54.038000000000004,"(0.3203560000000001, 0.0, 0.0, 0.0, 0.3203560000000001, 0.0, 0.0, 0.0, 0.8987040000000002)",2
2023/03/01/17:00:47.745933,303,1677550690,468967007,imu_link,0,0,35.9047001,127.1363193,54.120000000000005,"(0.3192250000000001, 0.0, 0.0, 0.0, 0.3192250000000001, 0.0, 0.0, 0.0, 0.8930250000000001)",2
2023/03/01/17:00:48.124537,304,1677550690,721782491,imu_link,0,0,35.904736299999996,127.13626409999999,54.132,"(0.31809600000000005, 0.0, 0.0, 0.0, 0.31809600000000005, 0.0, 0.0, 0.0, 0.8930250000000001)",2
2023/03/01/17:00:48.801087,305,1677550691,469478198,imu_link,0,0,35.9048459,127.13609989999999,54.188,"(0.31696900000000006, 0.0, 0.0, 0.0, 0.31696900000000006, 0.0, 0.0, 0.0, 0.8873640000000002)",2
2023/03/01/17:00:48.853084,306,1677550691,722177115,imu_link,0,0,35.9048827,127.1360457,54.202,"(0.31584400000000007, 0.0, 0.0, 0.0, 0.31584400000000007, 0.0, 0.0, 0.0, 0.8892490000000001)",2
2023/03/01/17:00:49.893880,307,1677550692,719587565,imu_link,0,0,35.9050309,127.1358305,54.261,"(0.3113640000000001, 0.0, 0.0, 0.0, 0.3113640000000001, 0.0, 0.0, 0.0, 0.8873640000000002)",2
2023/03/01/17:00:51.790063,308,1677550694,469564455,imu_link,0,0,35.9052949,127.1354605,54.341,"(0.30470400000000003, 0.0, 0.0, 0.0, 0.30470400000000003, 0.0, 0.0, 0.0, 0.8817210000000001)",2
2023/03/01/17:00:51.944280,309,1677550694,718897859,imu_link,0,0,35.9053331,127.1354082,54.352000000000004,"(0.30360100000000007, 0.0, 0.0, 0.0, 0.30360100000000007, 0.0, 0.0, 0.0, 0.8798440000000001)",2
2023/03/01/17:00:52.958911,310,1677550695,721061611,imu_link,0,0,35.905485899999995,127.1352002,54.42,"(0.30250000000000005, 0.0, 0.0, 0.0, 0.30250000000000005, 0.0, 0.0, 0.0, 0.8760960000000001)",2
2023/03/01/17:00:53.201837,311,1677550695,971035586,imu_link,0,0,35.905524199999995,127.1351483,54.425000000000004,"(0.30250000000000005, 0.0, 0.0, 0.0, 0.30250000000000005, 0.0, 0.0, 0.0, 0.8742250000000001)",2
2023/03/01/17:00:53.571037,312,1677550696,221429602,imu_link,0,0,35.905562599999996,127.13509669999999,54.44,"(0.30250000000000005, 0.0, 0.0, 0.0, 0.30250000000000005, 0.0, 0.0, 0.0, 0.8742250000000001)",2
2023/03/01/17:00:53.765916,313,1677550696,471866156,imu_link,0,0,35.9056011,127.1350452,54.454,"(0.30360100000000007, 0.0, 0.0, 0.0, 0.30360100000000007, 0.0, 0.0, 0.0, 0.8742250000000001)",2
2023/03/01/17:00:53.958935,314,1677550696,721975882,imu_link,0,0,35.9056397,127.1349939,54.473,"(0.30250000000000005, 0.0, 0.0, 0.0, 0.30250000000000005, 0.0, 0.0, 0.0, 0.8742250000000001)",2
2023/03/01/17:00:55.889538,315,1677550698,474972279,imu_link,0,0,35.9059132,127.1346403,54.569,"(0.29920900000000006, 0.0, 0.0, 0.0, 0.29920900000000006, 0.0, 0.0, 0.0, 0.8704890000000001)",2
2023/03/01/17:00:56.048387,316,1677550698,716512592,imu_link,0,0,35.9059528,127.1345906,54.569,"(0.29920900000000006, 0.0, 0.0, 0.0, 0.29920900000000006, 0.0, 0.0, 0.0, 0.8686240000000001)",2
2023/03/01/17:00:57.168975,317,1677550699,723663803,imu_link,0,0,35.9061126,127.13439419999999,54.623000000000005,"(0.29593600000000003, 0.0, 0.0, 0.0, 0.29593600000000003, 0.0, 0.0, 0.0, 0.8630410000000001)",2
2023/03/01/17:00:57.734740,318,1677550700,218947125,imu_link,0,0,35.9061936,127.13429719999999,54.662,"(0.294849, 0.0, 0.0, 0.0, 0.294849, 0.0, 0.0, 0.0, 0.8611840000000001)",2
2023/03/01/17:00:57.842879,319,1677550700,474188768,imu_link,0,0,35.9062342,127.134249,54.687,"(0.294849, 0.0, 0.0, 0.0, 0.294849, 0.0, 0.0, 0.0, 0.8593290000000001)",2
2023/03/01/17:00:58.093305,320,1677550700,718884418,imu_link,0,0,35.9062748,127.1342007,54.716,"(0.293764, 0.0, 0.0, 0.0, 0.293764, 0.0, 0.0, 0.0, 0.8574760000000001)",2
2023/03/01/17:00:58.959543,321,1677550701,469012286,imu_link,0,0,35.906396699999995,127.1340565,54.787,"(0.293764, 0.0, 0.0, 0.0, 0.293764, 0.0, 0.0, 0.0, 0.8556250000000001)",2
2023/03/01/17:01:00.494566,322,1677550701,968567344,imu_link,0,0,35.906478299999996,127.13396069999999,54.777,"(0.293764, 0.0, 0.0, 0.0, 0.293764, 0.0, 0.0, 0.0, 0.8556250000000001)",2
2023/03/01/17:01:00.954687,323,1677550702,718959467,imu_link,0,0,35.9066001,127.1338167,54.803000000000004,"(0.293764, 0.0, 0.0, 0.0, 0.293764, 0.0, 0.0, 0.0, 0.8537760000000001)",2
